{
    "locations": [
        {
            "name": "Copenhagen",
            "latitude": "55.688289008001746",
            "longitude": "12.563153057045923"
        },
        {
            "name": "London",
            "latitude": "51.525189406584765",
            "longitude": "-0.07305321596583998"
        },
        {
            "name": "Berlin",
            "latitude": "52.51988853733548",
            "longitude": "13.412775410440098"
        },
        {
            "name": "Stockholm",
            "latitude": "59.334809845973176",
            "longitude": "18.060297572387"
        },
        {
            "name": "Madrid",
            "latitude": "40.434926320995054",
            "longitude": "-3.7004936429540756"
        },
        {
            "name": "Lisbon",
            "latitude": "38.90351886043369",
            "longitude": "-9.170566751825842"
        }
    ]
}